[  
  {
    "name": "Golden Tarım Zirai İlaç & Tohumculuk & Gübre",
    "lat": 38.61758664478908,
    "long": 27.420738162062857,
    "city": "Manisa",
    "district": "Merkez",
    "url":"https://www.google.com.tr/maps/place/Golden+Tar%C4%B1m+Zirai+%C4%B0la%C3%A7+%26+Tohumculuk+%26+G%C3%BCbre/@38.6175112,27.4176751,17z/data=!3m1!4b1!4m6!3m5!1s0x14b99c68ac458be5:0xd0f814ac8e4a94c5!8m2!3d38.6175112!4d27.42025!16s%2Fg%2F11hy_428c8?hl=tr&entry=ttu&g_ep=EgoyMDI1MDEwOC4wIKXMDSoASAFQAw%3D%3D"
  },
  {
    "name": "EFOR ZİRAİ TARIM ÜRÜNLERİ SAN. VE TİC. LTD. ŞTİ.",
    "lat": 38.612828487810326,
    "long": 27.43583576003331,
    "city": "Manisa",
    "district": "Şehzadeler",
    "url":"https://www.google.com.tr/maps/place/EFOR+Z%C4%B0RA%C4%B0+TARIM+%C3%9CR%C3%9CNLER%C4%B0+SAN.+VE+T%C4%B0C.+LTD.+%C5%9ET%C4%B0./@38.6127953,27.4332483,17z/data=!3m1!4b1!4m6!3m5!1s0x14b99c14666bcdb1:0xb130c94b9b75451b!8m2!3d38.6127953!4d27.4358232!16s%2Fg%2F11gf619vmv?hl=tr&entry=ttu&g_ep=EgoyMDI1MDEwOC4wIKXMDSoASAFQAw%3D%3D"
  },
  {
    "name": "Erdal Mns Tarım",
    "lat": 38.66029975533057,
    "long": 27.33778822830762,
    "city": "Manisa",
    "district": "Yunusemre",
    "url":"https://www.google.com.tr/maps/place/Erdal+Mns+Tar%C4%B1m/@38.6601699,27.3346447,17z/data=!3m1!4b1!4m6!3m5!1s0x14b983755131d5f3:0xda9e5dcea6d31c7e!8m2!3d38.6601699!4d27.3372196!16s%2Fg%2F11gxm9std_?hl=tr&entry=ttu&g_ep=EgoyMDI1MDEwOC4wIKXMDSoASAFQAw%3D%3D"
  },
  {
    "name": "Güven Tarim",
    "lat": 38.61361381431991,
    "long": 27.435473999764763,
    "city": "Manisa",
    "district": "Merkez",
    "url":"https://www.google.com.tr/maps/place/G%C3%BCven+Tarim/@38.6135719,27.435474,18z/data=!3m1!4b1!4m6!3m5!1s0x14b99c147b822e99:0xcee51c47bc784a07!8m2!3d38.6135719!4d27.435474!16s%2Fg%2F11cs39ymdt?hl=tr&entry=ttu&g_ep=EgoyMDI1MDEwOC4wIKXMDSoASAFQAw%3D%3D"
  },
  {
    "name": "EGE TARIM",
    "lat": 38.619095547419974, 
    "long": 27.441346628310068,
    "city": "Manisa",
    "district": "Şehzadeler",
    "url":"https://www.google.com.tr/maps/place/EGE+TARIM/@38.618974,27.4382031,17z/data=!3m1!4b1!4m6!3m5!1s0x14b99d84efe878e9:0xb11e5b684ad7ff1!8m2!3d38.618974!4d27.440778!16s%2Fg%2F11sxzd2k7j?hl=tr&entry=ttu&g_ep=EgoyMDI1MDEwOC4wIKXMDSoASAFQAw%3D%3D"
  },
  {
    "name": "Mesir Tarım",
    "lat": 38.623852824530104,
    "long": 27.438531613492426,
    "city": "Manisa",
    "district": "Şehzadeler",
    "url":"https://www.google.com.tr/maps/place/Mesir+Tar%C4%B1m/@38.6236472,27.4356015,17z/data=!3m1!4b1!4m6!3m5!1s0x14b99c095786c7f7:0x35280ff9274c0f1a!8m2!3d38.6236472!4d27.4381764!16s%2Fg%2F11gj_n5rk5?hl=tr&entry=ttu&g_ep=EgoyMDI1MDEwOC4wIKXMDSoASAFQAw%3D%3D"
  },
  {"name":"Akbıyıkoğlu Tarım",
  "lat":38.51590710232895,
  "long": 28.34812789126253,
  "city":"Manisa",
  "district":"Salihli",
  "url":"https://www.google.com.tr/maps/place/Akb%C4%B1y%C4%B1ko%C4%9Flu+Tar%C4%B1m/@38.4886858,28.1394142,17z/data=!3m1!4b1!4m6!3m5!1s0x14b85a5c30523f31:0xca09b6dffb447e16!8m2!3d38.4886858!4d28.1419891!16s%2Fg%2F113j4_f_6?hl=tr&entry=ttu&g_ep=EgoyMDI1MDEwOC4wIKXMDSoASAFQAw%3D%3D"
  },
  {"name":"Toros Tarım Kangal",
  "lat":39.23319730326848,
  "long":37.39142904428788,
  "city":"Sivas",
  "district":"Kangal",
  "url":"https://www.google.com.tr/maps/place/Toros+Tar%C4%B1m+Kangal/@39.2331142,37.3879261,17z/data=!3m1!4b1!4m6!3m5!1s0x4079a7a46408c7ab:0xfa5c7e4483201649!8m2!3d39.2331142!4d37.390501!16s%2Fg%2F11g9k1hz8l?hl=tr&entry=ttu&g_ep=EgoyMDI1MDEwOC4wIKXMDSoASAFQAw%3D%3D"
  },
  {"name":"ASER TARIM VE HAYVANCILIK A.Ş.",
  "lat":39.73178621351248,
  "long": 37.006813782916716,
  "city":"Sivas",
  "district":"Merkez",
  "url":"https://www.google.com.tr/maps/place/ASER+TARIM+VE+HAYVANCILIK+A.%C5%9E./@39.7316707,37.0034825,17z/data=!3m1!4b1!4m6!3m5!1s0x407eab9547f84f7f:0x4deb04b6ae45e04d!8m2!3d39.7316707!4d37.0060574!16s%2Fg%2F11fs9n2j6m?hl=tr&entry=ttu&g_ep=EgoyMDI1MDEwOC4wIKXMDSoASAFQAw%3D%3D"
  },
  {"name":"Gerçek Ziraat Tarım Ticaret",
  "lat":39.730721217498136,
  "long":37.00566591784578,
  "city":"Sivas",
  "district":"Merkez",
  "url":"https://www.google.com.tr/maps/place/Ger%C3%A7ek+Ziraat+Tar%C4%B1m+Ticaret/@39.7305891,37.0003605,17z/data=!3m1!4b1!4m6!3m5!1s0x407eab4dc74d94ed:0x6d720ba7d545477c!8m2!3d39.7305892!4d37.0052314!16s%2Fg%2F11b6j0szjg?hl=tr&entry=ttu&g_ep=EgoyMDI1MDEwOC4wIKXMDSoASAFQAw%3D%3D"
  },
  {"name":"A.R.S TARİM-PROYEM",
  "lat":39.73019086734923,
  "long":37.00960395963067,
  "city":"Sivas",
  "district":"Merkez",
  "url":"https://www.google.com.tr/maps/place/A.R.S+TAR%C4%B0M-PROYEM/@39.7300671,37.0060581,17z/data=!3m1!4b1!4m6!3m5!1s0x407eab4d27f44ee9:0x5b7c8aef7fdc0a0f!8m2!3d39.7300671!4d37.008633!16s%2Fg%2F11c7hgccyp?hl=tr&entry=ttu&g_ep=EgoyMDI1MDEwOC4wIKXMDSoASAFQAw%3D%3D"
  },
  {"name":"Sortaş",
  "lat":39.709091912599476,
  "long":37.02832540435286,
  "city":"Sivas",
  "district":"Merkez",
  "url":"https://www.google.com.tr/maps/place/Sorta%C5%9F/@39.7089515,37.0229878,17z/data=!3m1!4b1!4m6!3m5!1s0x4079533522c198f1:0x733bef522fd1c487!8m2!3d39.7089516!4d37.0278587!16s%2Fg%2F11r1rh3_bq?hl=tr&entry=ttu&g_ep=EgoyMDI1MDEwOC4wIKXMDSoASAFQAw%3D%3D"
  }

]
